<marker>
<marker name="London Heathrow Airport (LHR)" lat="51.466841" long="-0.45304" address="Croydon Rd, Hillingdon, Greater London TW6 1GB, UK" />
<marker name="Paris-Charles de Gaulle Airport" lat="49.010515" long="2.548287" address="5 Rue du Cercle, 95700 Roissy-en-France, France 03 949" />
<marker name="Frankfurt International Airport" lat="50.03884" long="8.558984" address="Hugo-Eckener-Ring, 60549 Frankfurt, Germany 069 6900" />
<marker name="Amsterdam Airport Schiphol" lat="52.309528" long="4.764581" address="Schiphol, Netherlands" />
<marker name="Barajas Airport" lat="40.468368" long="-3.568549" address="28042 Madrid, Spain" />
</marker>
